{
    "id": "stargazing_50",
    "name": "全球最震撼的50个星空观测点",
    "desc": "仰望星空，感受宇宙",
    "icon": "star.fill",
    "category": "nature",
    "date": "2026-05-31",
    "items": [
        {
            "name": "阿塔卡马沙漠",
            "desc": "地球上最干燥的地方，世界顶级天文台聚集地",
            "latitude": -23.8634,
            "longitude": -69.1328,
            "address": "智利，安托法加斯塔大区"
        },
        {
            "name": "莫纳克亚山顶",
            "desc": "海拔4205米的火山顶，全球最佳天文观测点之一",
            "latitude": 19.8207,
            "longitude": -155.468,
            "address": "美国，夏威夷大岛"
        },
        {
            "name": "纳米布兰德自然保护区",
            "desc": "非洲首个国际暗天保护区，银河触手可及",
            "latitude": -24.75,
            "longitude": 16.0,
            "address": "纳米比亚，哈达普区"
        },
        {
            "name": "特卡波湖",
            "desc": "新西兰暗天保护区核心，约翰山天文台所在地",
            "latitude": -44.0047,
            "longitude": 170.4772,
            "address": "新西兰，坎特伯雷大区麦肯奇盆地"
        },
        {
            "name": "加纳利群岛拉帕尔马",
            "desc": "大西洋上的天文学圣地，世界最大光学望远镜之乡",
            "latitude": 28.7566,
            "longitude": -17.8837,
            "address": "西班牙，加纳利群岛拉帕尔马岛"
        },
        {
            "name": "凯里尼国际暗天公园",
            "desc": "爱尔兰唯一的黄金级暗天保护区",
            "latitude": 51.77,
            "longitude": -9.9,
            "address": "爱尔兰，凯里郡伊维拉半岛"
        },
        {
            "name": "死亡谷国家公园",
            "desc": "美国本土最暗的天空之一，银河拱门清晰可见",
            "latitude": 36.5054,
            "longitude": -117.0794,
            "address": "美国，加利福尼亚州/内华达州"
        },
        {
            "name": "自然桥国家公园",
            "desc": "世界首个国际暗天公园，以天然石桥框住星空",
            "latitude": 37.6045,
            "longitude": -110.0012,
            "address": "美国，犹他州"
        },
        {
            "name": "樱花峡谷暗天保护区",
            "desc": "美国东部最佳观星地之一",
            "latitude": 38.44,
            "longitude": -79.53,
            "address": "美国，弗吉尼亚州"
        },
        {
            "name": "大盆地国家公园",
            "desc": "美国光污染最少的地区之一，肉眼可见千万颗星",
            "latitude": 38.9833,
            "longitude": -114.3,
            "address": "美国，内华达州"
        },
        {
            "name": "乌尤尼盐沼",
            "desc": "天空之镜中的星空倒影，如同漂浮在银河中",
            "latitude": -20.1338,
            "longitude": -67.4891,
            "address": "玻利维亚，波托西省"
        },
        {
            "name": "撒哈拉沙漠梅尔祖卡",
            "desc": "无际沙海之上繁星满天，最原始的星空体验",
            "latitude": 31.0801,
            "longitude": -4.0083,
            "address": "摩洛哥，梅尔祖卡地区"
        },
        {
            "name": "瓦迪拉姆沙漠",
            "desc": "月亮谷的星空如同火星表面的夜晚",
            "latitude": 29.5724,
            "longitude": 35.4208,
            "address": "约旦，亚喀巴省"
        },
        {
            "name": "艾尔斯伯里暗天发现中心",
            "desc": "英国最佳暗天观测点之一",
            "latitude": 55.22,
            "longitude": -2.23,
            "address": "英国，诺森伯兰郡基德尔森林"
        },
        {
            "name": "格拉斯敦伯里星空保护区",
            "desc": "威尔士布雷肯比肯斯暗天保护区的核心",
            "latitude": 51.883,
            "longitude": -3.436,
            "address": "英国，威尔士布雷肯比肯斯国家公园"
        },
        {
            "name": "加拿大贾斯珀暗天保护区",
            "desc": "世界最大的暗天保护区，面积超一万平方公里",
            "latitude": 52.8734,
            "longitude": -117.9543,
            "address": "加拿大，阿尔伯塔省贾斯珀国家公园"
        },
        {
            "name": "库克山麦肯奇暗天保护区",
            "desc": "南半球最大的暗天保护区",
            "latitude": -43.73,
            "longitude": 170.1,
            "address": "新西兰，南岛坎特伯雷"
        },
        {
            "name": "纳米比亚索苏维来",
            "desc": "世界最高红色沙丘上的星空奇观",
            "latitude": -24.7275,
            "longitude": 15.2867,
            "address": "纳米比亚，纳米布-诺克卢福特国家公园"
        },
        {
            "name": "塔斯马尼亚中部高原",
            "desc": "澳大利亚光污染最少的区域之一",
            "latitude": -41.8,
            "longitude": 146.5,
            "address": "澳大利亚，塔斯马尼亚州"
        },
        {
            "name": "阿里暗夜公园",
            "desc": "中国首个暗夜星空保护区，海拔4200米以上",
            "latitude": 32.5,
            "longitude": 80.1,
            "address": "中国，西藏自治区阿里地区"
        },
        {
            "name": "那曲暗夜星空公园",
            "desc": "青藏高原上的纯净星空，中国最佳观星地之一",
            "latitude": 31.48,
            "longitude": 92.05,
            "address": "中国，西藏自治区那曲市"
        },
        {
            "name": "稻城亚丁",
            "desc": "海拔4000米的高原星空，雪山银河交相辉映",
            "latitude": 28.583,
            "longitude": 100.05,
            "address": "中国，四川省甘孜藏族自治州稻城县"
        },
        {
            "name": "青海冷湖",
            "desc": "中国西部天文台新址，媲美国际顶级台址",
            "latitude": 38.43,
            "longitude": 93.7,
            "address": "中国，青海省海西蒙古族藏族自治州"
        },
        {
            "name": "内蒙古额济纳旗",
            "desc": "大漠胡杨林上的璀璨星河",
            "latitude": 42.0,
            "longitude": 101.0,
            "address": "中国，内蒙古自治区阿拉善盟"
        },
        {
            "name": "帕拉纳尔天文台",
            "desc": "欧洲南方天文台VLT所在地，全球最佳人工观测设施",
            "latitude": -24.6272,
            "longitude": -70.4042,
            "address": "智利，安托法加斯塔大区"
        },
        {
            "name": "托弗诺暗天保护区",
            "desc": "加拿大太平洋沿岸的星空宝地",
            "latitude": 49.15,
            "longitude": -125.9,
            "address": "加拿大，不列颠哥伦比亚省温哥华岛"
        },
        {
            "name": "彼得里恩天文台",
            "desc": "南非最重要的天文观测站",
            "latitude": -32.3783,
            "longitude": 20.8106,
            "address": "南非，北开普省萨瑟兰"
        },
        {
            "name": "基鲁纳",
            "desc": "北极圈内的极光与星空双重奇观",
            "latitude": 67.8558,
            "longitude": 20.2253,
            "address": "瑞典，诺尔博滕省"
        },
        {
            "name": "特罗姆瑟",
            "desc": "北极之门的极光首都",
            "latitude": 69.6496,
            "longitude": 18.956,
            "address": "挪威，特罗姆斯-芬马克郡"
        },
        {
            "name": "伊瓦洛",
            "desc": "芬兰拉普兰的玻璃穹顶酒店观星圣地",
            "latitude": 68.6573,
            "longitude": 27.5536,
            "address": "芬兰，拉普兰区伊纳里"
        },
        {
            "name": "冰岛辛格维利尔",
            "desc": "板块交界处的极光与银河壮观",
            "latitude": 64.2559,
            "longitude": -21.129,
            "address": "冰岛，辛格维利尔国家公园"
        },
        {
            "name": "黄石国家公园",
            "desc": "地热奇观上的黑暗天空，独特的观星体验",
            "latitude": 44.428,
            "longitude": -110.5885,
            "address": "美国，怀俄明州"
        },
        {
            "name": "布莱斯峡谷国家公园",
            "desc": "岩柱群上方的银河拱门，7500颗肉眼可见星",
            "latitude": 37.593,
            "longitude": -112.1871,
            "address": "美国，犹他州"
        },
        {
            "name": "大提顿国家公园",
            "desc": "壮丽山脉剪影配银河的经典画面",
            "latitude": 43.7904,
            "longitude": -110.6818,
            "address": "美国，怀俄明州"
        },
        {
            "name": "樱桃泉国家公园",
            "desc": "美国东部唯一的黄金级暗天公园",
            "latitude": 41.6628,
            "longitude": -77.8231,
            "address": "美国，宾夕法尼亚州"
        },
        {
            "name": "大峡谷国家公园",
            "desc": "在世界奇观之一的峡谷中仰望星空",
            "latitude": 36.1069,
            "longitude": -112.1129,
            "address": "美国，亚利桑那州"
        },
        {
            "name": "皮克杜密迪天文台",
            "desc": "法国比利牛斯山顶的百年天文台",
            "latitude": 42.9367,
            "longitude": 0.1422,
            "address": "法国，上比利牛斯省"
        },
        {
            "name": "泰德天文台",
            "desc": "特内里费岛的高海拔观星圣地",
            "latitude": 28.3,
            "longitude": -16.51,
            "address": "西班牙，加纳利群岛特内里费岛"
        },
        {
            "name": "西澳大利亚皮纳克尔斯",
            "desc": "沙漠石柱群上的南半球星空",
            "latitude": -30.594,
            "longitude": 115.159,
            "address": "澳大利亚，西澳大利亚州南邦国家公园"
        },
        {
            "name": "艾尔斯岩（乌鲁鲁）",
            "desc": "澳大利亚红色中心的壮阔星穹",
            "latitude": -25.3444,
            "longitude": 131.0369,
            "address": "澳大利亚，北领地乌鲁鲁-卡塔丘塔国家公园"
        },
        {
            "name": "塔克拉玛干沙漠边缘",
            "desc": "中国最大沙漠边缘的无光害星空",
            "latitude": 38.5,
            "longitude": 82.0,
            "address": "中国，新疆维吾尔自治区"
        },
        {
            "name": "玻利维亚高原",
            "desc": "海拔4000米以上的稀薄大气令星星几乎不闪烁",
            "latitude": -17.96,
            "longitude": -67.11,
            "address": "玻利维亚，拉巴斯省"
        },
        {
            "name": "马达加斯加齐灵地保护区",
            "desc": "印度洋岛屿上远离文明的原始星空",
            "latitude": -18.85,
            "longitude": 44.65,
            "address": "马达加斯加，梅那贝区"
        },
        {
            "name": "斯科舍暗天保护区",
            "desc": "苏格兰最好的暗天观测点",
            "latitude": 55.4,
            "longitude": -3.3,
            "address": "英国，苏格兰边境区加洛韦森林公园"
        },
        {
            "name": "科罗拉多大沙丘国家公园",
            "desc": "北美最高沙丘上的黑暗夜空",
            "latitude": 37.7326,
            "longitude": -105.5124,
            "address": "美国，科罗拉多州"
        },
        {
            "name": "约书亚树国家公园",
            "desc": "沙漠怪树剪影下的浩瀚星海",
            "latitude": 33.8734,
            "longitude": -115.901,
            "address": "美国，加利福尼亚州"
        },
        {
            "name": "塞罗托洛洛天文台",
            "desc": "智利北部的美洲际天文研究中心",
            "latitude": -30.1691,
            "longitude": -70.8065,
            "address": "智利，科金博大区"
        },
        {
            "name": "科科尼诺国家森林",
            "desc": "亚利桑那州北部的绝佳暗天区域",
            "latitude": 34.9,
            "longitude": -111.5,
            "address": "美国，亚利桑那州弗拉格斯塔夫"
        },
        {
            "name": "新墨西哥州沙洲导弹靶场",
            "desc": "美国大陆光污染最少的大片区域之一",
            "latitude": 33.0,
            "longitude": -106.5,
            "address": "美国，新墨西哥州"
        },
        {
            "name": "茶卡盐湖",
            "desc": "中国版天空之镜中的银河倒影",
            "latitude": 36.72,
            "longitude": 99.08,
            "address": "中国，青海省海西蒙古族藏族自治州"
        }
    ],
    "count": 50
}