{
    "id": "472387D6-405B-421B-A28D-15B0CAA57B08",
    "name": "全球最值得参观的50座博物馆",
    "desc": "穿越时空的对话",
    "icon": "building.columns.fill",
    "category": "culture",
    "date": 1780156800,
    "items": [
        {
            "name": "卢浮宫",
            "desc": "世界上参观人数最多的博物馆，拥有蒙娜丽莎等稀世珍宝",
            "latitude": 48.8606,
            "longitude": 2.3376,
            "address": "法国巴黎第一区里沃利街"
        },
        {
            "name": "大英博物馆",
            "desc": "馆藏800万件人类文明瑰宝，免费开放",
            "latitude": 51.5194,
            "longitude": -0.127,
            "address": "英国伦敦大罗素街"
        },
        {
            "name": "故宫博物院",
            "desc": "中国最大的古代文化艺术博物馆，明清两代皇宫",
            "latitude": 39.9163,
            "longitude": 116.3972,
            "address": "中国北京市东城区景山前街4号"
        },
        {
            "name": "大都会艺术博物馆",
            "desc": "美国最大的艺术博物馆，藏品跨越5000年",
            "latitude": 40.7794,
            "longitude": -73.9632,
            "address": "美国纽约市第五大道1000号"
        },
        {
            "name": "梵蒂冈博物馆",
            "desc": "教廷珍藏，西斯廷教堂天顶画是镇馆之宝",
            "latitude": 41.9065,
            "longitude": 12.4536,
            "address": "梵蒂冈城"
        },
        {
            "name": "乌菲兹美术馆",
            "desc": "文艺复兴艺术的殿堂，波提切利和达芬奇的杰作",
            "latitude": 43.7677,
            "longitude": 11.2553,
            "address": "意大利佛罗伦萨乌菲兹广场6号"
        },
        {
            "name": "冬宫博物馆（埃尔米塔日）",
            "desc": "世界四大博物馆之一，沙皇宫殿的奢华收藏",
            "latitude": 59.9398,
            "longitude": 30.3146,
            "address": "俄罗斯圣彼得堡宫殿滨河路34号"
        },
        {
            "name": "史密森尼国家航空航天博物馆",
            "desc": "记录人类飞行梦想的殿堂",
            "latitude": 38.8882,
            "longitude": -77.0199,
            "address": "美国华盛顿特区独立大道"
        },
        {
            "name": "东京国立博物馆",
            "desc": "日本最古老最大的博物馆，亚洲艺术宝库",
            "latitude": 35.7189,
            "longitude": 139.7765,
            "address": "日本东京都台东区上野公园13-9"
        },
        {
            "name": "普拉多博物馆",
            "desc": "西班牙王室收藏，欧洲绘画艺术的巅峰",
            "latitude": 40.4138,
            "longitude": -3.6921,
            "address": "西班牙马德里普拉多大道"
        },
        {
            "name": "阿姆斯特丹国立博物馆",
            "desc": "荷兰黄金时代的艺术殿堂，伦勃朗《夜巡》所在地",
            "latitude": 52.36,
            "longitude": 4.8852,
            "address": "荷兰阿姆斯特丹博物馆广场1号"
        },
        {
            "name": "埃及博物馆",
            "desc": "世界上最大的古埃及文物收藏",
            "latitude": 30.0478,
            "longitude": 31.2336,
            "address": "埃及开罗解放广场"
        },
        {
            "name": "中国国家博物馆",
            "desc": "世界上单体建筑面积最大的博物馆",
            "latitude": 39.905,
            "longitude": 116.3975,
            "address": "中国北京市东城区东长安街16号"
        },
        {
            "name": "奥赛博物馆",
            "desc": "印象派艺术的最佳殿堂，由火车站改建",
            "latitude": 48.86,
            "longitude": 2.3266,
            "address": "法国巴黎第七区里沃利街1号"
        },
        {
            "name": "现代艺术博物馆（MoMA）",
            "desc": "当代艺术的标杆，藏有《星夜》等名作",
            "latitude": 40.7614,
            "longitude": -73.9776,
            "address": "美国纽约市曼哈顿第53街11号"
        },
        {
            "name": "秦始皇帝陵博物院",
            "desc": "兵马俑被誉为世界第八大奇迹",
            "latitude": 34.3842,
            "longitude": 109.2785,
            "address": "中国陕西省西安市临潼区"
        },
        {
            "name": "维也纳艺术史博物馆",
            "desc": "哈布斯堡王朝的辉煌收藏",
            "latitude": 48.2034,
            "longitude": 16.3614,
            "address": "奥地利维也纳玛丽亚·特蕾莎广场"
        },
        {
            "name": "柏林佩加蒙博物馆",
            "desc": "完整重建的古代建筑奇迹",
            "latitude": 52.5211,
            "longitude": 13.3969,
            "address": "德国柏林博物馆岛"
        },
        {
            "name": "台北故宫博物院",
            "desc": "中华文物精粹，翠玉白菜与肉形石闻名于世",
            "latitude": 25.1024,
            "longitude": 121.5485,
            "address": "中国台湾台北市士林区至善路二段221号"
        },
        {
            "name": "古根海姆博物馆（毕尔巴鄂）",
            "desc": "弗兰克·盖里设计的解构主义建筑杰作",
            "latitude": 43.2687,
            "longitude": -2.934,
            "address": "西班牙毕尔巴鄂阿班多伊巴拉大道2号"
        },
        {
            "name": "南京博物院",
            "desc": "中国三大博物馆之一，藏品42万余件",
            "latitude": 32.0227,
            "longitude": 118.8218,
            "address": "中国江苏省南京市玄武区中山东路321号"
        },
        {
            "name": "美国自然历史博物馆",
            "desc": "《博物馆奇妙夜》取景地，恐龙化石令人震撼",
            "latitude": 40.7813,
            "longitude": -73.974,
            "address": "美国纽约市中央公园西79街"
        },
        {
            "name": "凡尔赛宫",
            "desc": "法国太阳王路易十四的奢华宫殿",
            "latitude": 48.8049,
            "longitude": 2.1204,
            "address": "法国伊夫林省凡尔赛市"
        },
        {
            "name": "阿克罗波利斯博物馆",
            "desc": "希腊文明的精华，帕特农神庙的珍贵雕塑",
            "latitude": 37.9685,
            "longitude": 23.7284,
            "address": "希腊雅典迪奥尼修斯·阿利奥帕基图街15号"
        },
        {
            "name": "以色列博物馆",
            "desc": "死海古卷的收藏地，圣地历史的见证",
            "latitude": 31.773,
            "longitude": 35.2044,
            "address": "以色列耶路撒冷鲁宾大道11号"
        },
        {
            "name": "泰特现代美术馆",
            "desc": "由发电站改建的现代艺术殿堂",
            "latitude": 51.5076,
            "longitude": -0.0994,
            "address": "英国伦敦南岸河畔街"
        },
        {
            "name": "上海博物馆",
            "desc": "中国古代艺术博物馆，青铜器收藏世界一流",
            "latitude": 31.2295,
            "longitude": 121.4737,
            "address": "中国上海市黄浦区人民大道201号"
        },
        {
            "name": "丹麦国家博物馆",
            "desc": "维京文化与北欧历史的全面展示",
            "latitude": 55.6744,
            "longitude": 12.5747,
            "address": "丹麦哥本哈根维斯特街10号"
        },
        {
            "name": "国立西洋美术馆",
            "desc": "勒·柯布西耶设计，日本最重要的西方艺术馆",
            "latitude": 35.7153,
            "longitude": 139.7761,
            "address": "日本东京都台东区上野公园7-7"
        },
        {
            "name": "墨西哥国立人类学博物馆",
            "desc": "中美洲古文明的最佳展示，阿兹特克太阳石",
            "latitude": 19.426,
            "longitude": -99.1862,
            "address": "墨西哥城查普尔特佩克公园"
        },
        {
            "name": "陕西历史博物馆",
            "desc": "中国第一座大型现代国家级博物馆",
            "latitude": 34.227,
            "longitude": 108.9557,
            "address": "中国陕西省西安市雁塔区小寨东路91号"
        },
        {
            "name": "三星堆博物馆",
            "desc": "颠覆认知的古蜀文明，青铜面具举世瞩目",
            "latitude": 31.0028,
            "longitude": 104.2061,
            "address": "中国四川省德阳市广汉市三星堆镇"
        },
        {
            "name": "新加坡国家美术馆",
            "desc": "东南亚最大的视觉艺术机构",
            "latitude": 1.2903,
            "longitude": 103.8517,
            "address": "新加坡圣安德烈路1号"
        },
        {
            "name": "韩国国立中央博物馆",
            "desc": "亚洲规模最大的博物馆之一",
            "latitude": 37.5239,
            "longitude": 126.9803,
            "address": "韩国首尔龙山区西冰库路137号"
        },
        {
            "name": "芝加哥艺术博物馆",
            "desc": "美国三大美术馆之一，印象派收藏丰富",
            "latitude": 41.8796,
            "longitude": -87.6237,
            "address": "美国芝加哥密歇根大道111号南"
        },
        {
            "name": "湖南省博物馆",
            "desc": "马王堆汉墓出土文物，辛追夫人千年不腐",
            "latitude": 28.2122,
            "longitude": 112.9819,
            "address": "中国湖南省长沙市开福区东风路50号"
        },
        {
            "name": "吉美国立亚洲艺术博物馆",
            "desc": "欧洲最大的亚洲艺术收藏",
            "latitude": 48.8648,
            "longitude": 2.2937,
            "address": "法国巴黎第十六区伊埃纳广场6号"
        },
        {
            "name": "敦煌研究院（莫高窟）",
            "desc": "千年佛教艺术宝库，丝绸之路的文化明珠",
            "latitude": 40.0359,
            "longitude": 94.8091,
            "address": "中国甘肃省酒泉市敦煌市"
        },
        {
            "name": "荷兰梵高博物馆",
            "desc": "收藏梵高作品最多的博物馆",
            "latitude": 52.3584,
            "longitude": 4.8811,
            "address": "荷兰阿姆斯特丹博物馆广场6号"
        },
        {
            "name": "苏州博物馆",
            "desc": "贝聿铭封山之作，建筑本身即是艺术品",
            "latitude": 31.3225,
            "longitude": 120.6285,
            "address": "中国江苏省苏州市姑苏区东北街204号"
        },
        {
            "name": "日本京都国立博物馆",
            "desc": "千年古都的文化积淀",
            "latitude": 34.988,
            "longitude": 135.7735,
            "address": "日本京都市东山区茶屋町527"
        },
        {
            "name": "伦敦自然史博物馆",
            "desc": "恐龙骨架与宝石矿物的壮观展示",
            "latitude": 51.4967,
            "longitude": -0.1764,
            "address": "英国伦敦南肯辛顿克伦威尔路"
        },
        {
            "name": "蓬皮杜中心",
            "desc": "外露管道的前卫建筑，欧洲最大现代艺术收藏",
            "latitude": 48.8607,
            "longitude": 2.3523,
            "address": "法国巴黎第四区乔治·蓬皮杜广场"
        },
        {
            "name": "印度国家博物馆",
            "desc": "印度文明五千年的辉煌见证",
            "latitude": 28.6117,
            "longitude": 77.2194,
            "address": "印度新德里国王大道"
        },
        {
            "name": "德累斯顿绿穹珍宝馆",
            "desc": "欧洲最华丽的珍宝收藏室",
            "latitude": 51.0527,
            "longitude": 13.7363,
            "address": "德国德累斯顿王宫"
        },
        {
            "name": "河南博物院",
            "desc": "中原文明的重要见证，贾湖骨笛世界最早乐器",
            "latitude": 34.7895,
            "longitude": 113.6601,
            "address": "中国河南省郑州市金水区农业路8号"
        },
        {
            "name": "卡塔尔国家博物馆",
            "desc": "让·努维尔设计的沙漠玫瑰建筑",
            "latitude": 25.2953,
            "longitude": 51.5493,
            "address": "卡塔尔多哈滨海路"
        },
        {
            "name": "阿布扎比卢浮宫",
            "desc": "让·努维尔设计的水上博物馆",
            "latitude": 24.5339,
            "longitude": 54.3984,
            "address": "阿联酋阿布扎比萨迪亚特岛"
        },
        {
            "name": "里约热内卢明日博物馆",
            "desc": "圣地亚哥·卡拉特拉瓦设计的未来主义建筑",
            "latitude": -22.894,
            "longitude": -43.18,
            "address": "巴西里约热内卢马乌阿广场1号"
        },
        {
            "name": "湖北省博物馆",
            "desc": "曾侯乙编钟与越王勾践剑的故乡",
            "latitude": 30.5686,
            "longitude": 114.3593,
            "address": "中国湖北省武汉市武昌区东湖路160号"
        }
    ],
    "count": 50
}